{
  "cycle": 0,
  "depots": [
    {
      "food_stock": 5000,
      "id": 1,
      "is_active": true,
      "lat": 18.5204,
      "lng": 73.8567,
      "medicine_stock": 2000,
      "name": "Pune Depot"
    },
    {
      "food_stock": 4200,
      "id": 2,
      "is_active": true,
      "lat": 19.076,
      "lng": 72.8777,
      "medicine_stock": 1700,
      "name": "Mumbai Port Depot"
    },
    {
      "food_stock": 3600,
      "id": 3,
      "is_active": true,
      "lat": 21.1458,
      "lng": 79.0882,
      "medicine_stock": 1500,
      "name": "Nagpur Central Depot"
    },
    {
      "food_stock": 2800,
      "id": 4,
      "is_active": true,
      "lat": 19.8762,
      "lng": 75.3433,
      "medicine_stock": 1200,
      "name": "Aurangabad Depot"
    }
  ],
  "dispatch_log": [],
  "heap": {
    "min_id": 3,
    "nodes": [
      {
        "degree": 0,
        "id": 10,
        "key": 4094.94,
        "marked": false
      },
      {
        "degree": 0,
        "id": 9,
        "key": 5179.66,
        "marked": false
      },
      {
        "degree": 0,
        "id": 8,
        "key": 6137.77,
        "marked": false
      },
      {
        "degree": 0,
        "id": 7,
        "key": 3236.84,
        "marked": false
      },
      {
        "degree": 0,
        "id": 6,
        "key": 4205.98,
        "marked": false
      },
      {
        "degree": 0,
        "id": 5,
        "key": 5000.0,
        "marked": false
      },
      {
        "degree": 0,
        "id": 4,
        "key": 3000.0,
        "marked": false
      },
      {
        "degree": 0,
        "id": 2,
        "key": 4000.0,
        "marked": false
      },
      {
        "degree": 0,
        "id": 1,
        "key": 2140.12,
        "marked": false
      },
      {
        "degree": 0,
        "id": 3,
        "key": 1000.0,
        "marked": false
      }
    ]
  },
  "skip_list": {
    "levels": [
      [
        {
          "depot_id": 4,
          "key": 2800.0
        },
        {
          "depot_id": 3,
          "key": 3600.0
        }
      ],
      [
        {
          "depot_id": 4,
          "key": 2800.0
        },
        {
          "depot_id": 3,
          "key": 3600.0
        },
        {
          "depot_id": 2,
          "key": 4200.0
        },
        {
          "depot_id": 1,
          "key": 5000.0
        }
      ]
    ]
  },
  "trie_path": [
    "N",
    "a",
    "s",
    "h",
    "i",
    "k"
  ],
  "union_find": {
    "components": [
      [
        0
      ],
      [
        1,
        2,
        3,
        4,
        5,
        6,
        7,
        8,
        9,
        10
      ]
    ]
  },
  "zones": [
    {
      "assigned_depot": -1,
      "id": 1,
      "is_served": false,
      "lat": 19.9975,
      "lng": 73.7898,
      "name": "Nashik",
      "severity": 8
    },
    {
      "assigned_depot": -1,
      "id": 2,
      "is_served": false,
      "lat": 18.5204,
      "lng": 73.8567,
      "name": "Pune",
      "severity": 6
    },
    {
      "assigned_depot": -1,
      "id": 3,
      "is_served": false,
      "lat": 19.076,
      "lng": 72.8777,
      "name": "Mumbai",
      "severity": 9
    },
    {
      "assigned_depot": -1,
      "id": 4,
      "is_served": false,
      "lat": 21.1458,
      "lng": 79.0882,
      "name": "Nagpur",
      "severity": 7
    },
    {
      "assigned_depot": -1,
      "id": 5,
      "is_served": false,
      "lat": 19.8762,
      "lng": 75.3433,
      "name": "Aurangabad",
      "severity": 5
    },
    {
      "assigned_depot": -1,
      "id": 6,
      "is_served": false,
      "lat": 16.705,
      "lng": 74.2433,
      "name": "Kolhapur",
      "severity": 6
    },
    {
      "assigned_depot": -1,
      "id": 7,
      "is_served": false,
      "lat": 17.6599,
      "lng": 75.9064,
      "name": "Solapur",
      "severity": 7
    },
    {
      "assigned_depot": -1,
      "id": 8,
      "is_served": false,
      "lat": 20.9374,
      "lng": 77.7796,
      "name": "Amravati",
      "severity": 4
    },
    {
      "assigned_depot": -1,
      "id": 9,
      "is_served": false,
      "lat": 16.9902,
      "lng": 73.312,
      "name": "Ratnagiri",
      "severity": 5
    },
    {
      "assigned_depot": -1,
      "id": 10,
      "is_served": false,
      "lat": 17.6805,
      "lng": 74.0183,
      "name": "Satara",
      "severity": 6
    }
  ]
}